[
    {
      "odoo_id": 221,
      "name": "Afs",
      "type": "poi",
      "source": "file:///data/user/0/com.metua.module/files/unsynchronized_places.csv",
      "source_id": "MM000000001420241023130344",
      "layer": "venue",
      "centroid_lat": 4.0426015,
      "centroid_lon": 9.7042738,
      "bounding_box_min_lat": 4.0421015,
      "bounding_box_max_lat": 4.0431015,
      "bounding_box_min_lon": 9.7039738,
      "bounding_box_max_lon": 9.704573799999999,
      "address_name": "Direction technique africa systems",
      "address_number": "",
      "address_street": "",
      "address_locality": "Douala",
      "address_country": "Cameroon",
      "address_country_gid": "whosonfirst:country:85632245",
      "address_region": "Littoral Province",
      "address_region_gid": "whosonfirst:region:85669937",
      "address_county": "Wouri",
      "address_county_gid": "whosonfirst:county:1092012257",
      "address_neighbourhood": "",
      "address_plus_code": "6FPF2PV3+3M",
      "properties_attraction": "1",
      "properties_category": "office",
      "properties_subcategory": "lieu",
      "properties_wikidata": "Q240",
      "properties_wikipedia": "fr:Wouri",
      "properties_description": "Test",
      "properties_image": "[]",
      "images": [],
      "id": 55,
      "validation_status": "pending",
      "date_added": "2025-08-12T10:04:35.825570"
    },
    {
      "odoo_id": 222,
      "name": "Afs",
      "type": "poi",
      "source": "file:///data/user/0/com.metua.module/files/unsynchronized_places.csv",
      "source_id": "MM000000001420241023130344",
      "layer": "venue",
      "centroid_lat": 4.0426015,
      "centroid_lon": 9.7042738,
      "bounding_box_min_lat": 4.0421015,
      "bounding_box_max_lat": 4.0431015,
      "bounding_box_min_lon": 9.7039738,
      "bounding_box_max_lon": 9.704573799999999,
      "address_name": "Direction technique africa systems",
      "address_number": "",
      "address_street": "",
      "address_locality": "Douala",
      "address_country": "Cameroon",
      "address_country_gid": "whosonfirst:country:85632245",
      "address_region": "Littoral Province",
      "address_region_gid": "whosonfirst:region:85669937",
      "address_county": "Wouri",
      "address_county_gid": "whosonfirst:county:1092012257",
      "address_neighbourhood": "",
      "address_plus_code": "6FPF2PV3+3M",
      "properties_attraction": "1",
      "properties_category": "office",
      "properties_subcategory": "lieu",
      "properties_wikidata": "Q240",
      "properties_wikipedia": "fr:Wouri",
      "properties_description": "Test",
      "properties_image": "[]",
      "images": [],
      "id": 56,
      "validation_status": "pending",
      "date_added": "2025-08-12T10:04:36.039075"
    },
    {
      "odoo_id": 223,
      "name": "Tesrckif",
      "type": "poi",
      "source": "file:///data/user/0/com.metua.module/files/unsynchronized_places.csv",
      "source_id": "MM000000001420241023130344",
      "layer": "venue",
      "centroid_lat": 4.0426008,
      "centroid_lon": 9.7042744,
      "bounding_box_min_lat": 4.0421008,
      "bounding_box_max_lat": 4.0431007999999995,
      "bounding_box_min_lon": 9.7039744,
      "bounding_box_max_lon": 9.704574399999998,
      "address_name": "Direction technique africa systems",
      "address_number": "",
      "address_street": "",
      "address_locality": "Douala",
      "address_country": "Cameroon",
      "address_country_gid": "whosonfirst:country:85632245",
      "address_region": "Littoral Province",
      "address_region_gid": "whosonfirst:region:85669937",
      "address_county": "Wouri",
      "address_county_gid": "whosonfirst:county:1092012257",
      "address_neighbourhood": "",
      "address_plus_code": "6FPF2PV3+3M",
      "properties_attraction": "1",
      "properties_category": "art_school",
      "properties_subcategory": "lieu_test",
      "properties_wikidata": "Q240",
      "properties_wikipedia": "fr:Wouri",
      "properties_description": "Resr",
      "properties_image": "[]",
      "images": [],
      "id": 57,
      "validation_status": "pending",
      "date_added": "2025-08-12T10:04:36.229728"
    }
  ]